[
    {
        "id": "201500001",
        "name": "锦州市工人体育场-1",
        "address": "锦州市开发区",
        "province": "辽宁省",
        "city": "锦州市",
        "district": "开发区",
        "postcode": 647000,
        "lat": 0,
        "lon": 0,
        "distance": 15,
        "telephone": 4164986868,
        "type": "Public",
        "currentPlayers": 5,
        "preRegisteredPlayers": 11,
        "status": "playing"
    },
    {
        "id": "201500002",
        "name": "锦州市工人体育场-2",
        "address": "锦州市开发区",
        "province": "辽宁省",
        "city": "锦州市",
        "district": "开发区",
        "postcode": 647000,
        "lat": 0,
        "lon": 0,
        "distance": 10,
        "telephone": 4164986868,
        "type": "Public",
        "currentPlayers": 2,
        "preRegisteredPlayers": 15,
        "status": "playing"
    },
    {
        "id": "201500003",
        "name": "锦州市工人体育场-3",
        "address": "锦州市开发区",
        "province": "辽宁省",
        "city": "锦州市",
        "district": "开发区",
        "postcode": 647000,
        "lat": 0,
        "lon": 0,
        "distance": 5,
        "telephone": 4164986868,
        "type": "Public",
        "currentPlayers": 7,
        "preRegisteredPlayers": 10,
        "status": "playing"
    },
    {
        "id": "201500004",
        "name": "锦州市工人体育场-4",
        "address": "锦州市开发区",
        "province": "辽宁省",
        "city": "锦州市",
        "district": "开发区",
        "postcode": 647000,
        "lat": 0,
        "lon": 0,
        "distance": 8,
        "telephone": 4164986868,
        "type": "Public",
        "currentPlayers": 3,
        "preRegisteredPlayers": 10,
        "status": "registering"
    },
    {
        "id": "201500005",
        "name": "锦州市工人体育场-5",
        "address": "锦州市开发区",
        "province": "辽宁省",
        "city": "锦州市",
        "district": "开发区",
        "postcode": 647000,
        "lat": 0,
        "lon": 0,
        "distance": 12,
        "telephone": 4164986868,
        "type": "Public",
        "currentPlayers": 0,
        "preRegisteredPlayers": 0,
        "status": "none"
    }
]